{"results": [{"lat": "25.10336", "sno": "0134", "lng": "121.522629", "sbi": "16", "sna": "捷運芝山站(2號出口)"}, {"lat": "25.114513", "sno": "0135", "lng": "121.515677", "sbi": "22", "sna": "捷運石牌站(2號出口)"}, {"lat": "25.118049", "sno": "0136", "lng": "121.517512", "sbi": "9", "sna": "國立臺北護理健康大學"}, {"lat": "25.137976", "sno": "0137", "lng": "121.493066", "sbi": "25", "sna": "國防大學"}, {"lat": "25.058", "sno": "0039", "lng": "121.61422", "sbi": "14", "sna": "南港世貿公園"}, {"lat": "25.02665", "sno": "0038", "lng": "121.52889", "sbi": "20", "sna": "臺灣師範大學(圖書館)"}, {"lat": "25.01603085", "sno": "0132", "lng": "121.5331757", "sbi": "38", "sna": "羅斯福新生南路口"}, {"lat": "25.111839", "sno": "0133", "lng": "121.525888", "sbi": "20", "sna": "蘭興公園"}, {"lat": "25.059978", "sno": "0035", "lng": "121.533302", "sbi": "8", "sna": "捷運行天宮站(3號出口)"}, {"lat": "25.058369", "sno": "0034", "lng": "121.532934", "sbi": "14", "sna": "捷運行天宮站(1號出口)"}, {"lat": "25.0337", "sno": "0037", "lng": "121.528988", "sbi": "24", "sna": "捷運東門站(4號出口)"}, {"lat": "25.02101", "sno": "0036", "lng": "121.54153", "sbi": "4", "sna": "臺大資訊大樓"}, {"lat": "25.022413", "sno": "0031", "lng": "121.53456", "sbi": "1", "sna": "辛亥新生路口"}, {"lat": "25.017054", "sno": "0030", "lng": "121.544352", "sbi": "35", "sna": "基隆長興路口"}, {"lat": "25.04878", "sno": "0033", "lng": "121.56087", "sbi": "11", "sna": "中崙高中"}, {"lat": "25.023884", "sno": "0032", "lng": "121.553161", "sbi": "12", "sna": "捷運六張犁站"}, {"lat": "25.073119", "sno": "0238", "lng": "121.575965", "sbi": "1", "sna": "瑞湖陽光街口"}, {"lat": "25.118843", "sno": "0232", "lng": "121.529738", "sbi": "23", "sna": "中山天母路口"}, {"lat": "25.022073", "sno": "0126", "lng": "121.548336", "sbi": "15", "sna": "敦化基隆路口"}, {"lat": "25.031445", "sno": "0130", "lng": "121.519411", "sbi": "8", "sna": "羅斯福寧波東街口"}, {"lat": "25.079322", "sno": "0131", "lng": "121.568688", "sbi": "8", "sna": "洲子二號公園"}, {"lat": "25.073277", "sno": "0127", "lng": "121.619521", "sbi": "18", "sna": "東湖國中"}, {"lat": "25.033323", "sno": "0312", "lng": "121.552787", "sbi": "16", "sna": "捷運信義安和站(1號出口)"}, {"lat": "24.989902", "sno": "0141", "lng": "121.569984", "sbi": "5", "sna": "文山行政中心"}, {"lat": "25.063404", "sno": "0140", "lng": "121.512909", "sbi": "20", "sna": "捷運大橋頭站(2號出口)"}, {"lat": "24.997659", "sno": "0143", "lng": "121.578752", "sbi": "56", "sna": "捷運動物園站(2號出口)"}, {"lat": "24.997747", "sno": "0142", "lng": "121.574214", "sbi": "33", "sna": "捷運木柵站"}, {"lat": "25.066688", "sno": "0145", "lng": "121.516149", "sbi": "16", "sna": "樹德公園"}, {"lat": "24.988363", "sno": "0144", "lng": "121.576536", "sbi": "13", "sna": "國立政治大學"}, {"lat": "25.089175", "sno": "0147", "lng": "121.521814", "sbi": "13", "sna": "士林運動中心"}, {"lat": "25.092546", "sno": "0146", "lng": "121.526556", "sbi": "27", "sna": "捷運士林站(2號出口)"}, {"lat": "25.116665", "sno": "0149", "lng": "121.509621", "sbi": "44", "sna": "北投運動中心"}, {"lat": "25.110331", "sno": "0148", "lng": "121.518316", "sbi": "28", "sna": "捷運明德站"}, {"lat": "25.087413", "sno": "0305", "lng": "121.592253", "sbi": "19", "sna": "碧山公園"}, {"lat": "25.029902", "sno": "0304", "lng": "121.531235", "sbi": "21", "sna": "金華公園"}, {"lat": "25.076691", "sno": "0303", "lng": "121.617085", "sbi": "15", "sna": "安泰街83巷"}, {"lat": "25.047805", "sno": "0231", "lng": "121.545022", "sbi": "11", "sna": "內政部營建署"}, {"lat": "25.055062", "sno": "0301", "lng": "121.525383", "sbi": "25", "sna": "林森長春路口"}, {"lat": "25.033209", "sno": "0300", "lng": "121.558731", "sbi": "9", "sna": "信義基隆路口"}, {"lat": "25.05247", "sno": "0048", "lng": "121.608202", "sbi": "15", "sna": "南港車站(忠孝東路)"}, {"lat": "25.040901", "sno": "0049", "lng": "121.548252", "sbi": "30", "sna": "龍門廣場"}, {"lat": "25.038609", "sno": "0125", "lng": "121.498495", "sbi": "9", "sna": "華西公園"}, {"lat": "25.115863", "sno": "0124", "lng": "121.518163", "sbi": "13", "sna": "振華公園"}, {"lat": "25.116325", "sno": "0123", "lng": "121.534136", "sbi": "19", "sna": "天母運動公園"}, {"lat": "25.079681", "sno": "0122", "lng": "121.575458", "sbi": "30", "sna": "捷運港墘站(2號出口)"}, {"lat": "25.05298", "sno": "0121", "lng": "121.540568", "sbi": "28", "sna": "龍江南京路口"}, {"lat": "25.035479", "sno": "0120", "lng": "121.50026", "sbi": "18", "sna": "捷運龍山寺站(1號出口)"}, {"lat": "25.04287", "sno": "0040", "lng": "121.58640", "sbi": "4", "sna": "玉成公園"}, {"lat": "25.047425", "sno": "0041", "lng": "121.613706", "sbi": "21", "sna": "中研公園"}, {"lat": "25.04431", "sno": "0042", "lng": "121.58174", "sbi": "20", "sna": "捷運後山埤站(1號出口)"}, {"lat": "25.035639", "sno": "0043", "lng": "121.614154", "sbi": "13", "sna": "凌雲市場"}, {"lat": "25.05973", "sno": "0044", "lng": "121.616187", "sbi": "24", "sna": "捷運南港軟體園區站(2號出口)"}, {"lat": "25.01476", "sno": "0045", "lng": "121.534538", "sbi": "0", "sna": "捷運公館站(2號出口)"}, {"lat": "25.05646", "sno": "0046", "lng": "121.611027", "sbi": "29", "sna": "南港國小"}, {"lat": "25.041924", "sno": "0047", "lng": "121.533862", "sbi": "20", "sna": "捷運忠孝新生站(3號出口)"}, {"lat": "25.048460", "sno": "0235", "lng": "121.565928", "sbi": "11", "sna": "市民東興路口"}, {"lat": "25.084135", "sno": "0318", "lng": "121.594840", "sbi": "12", "sna": "捷運內湖站(1號出口)"}, {"lat": "25.124162", "sno": "0234", "lng": "121.526071", "sbi": "13", "sna": "永欣綠地"}, {"lat": "25.131411", "sno": "0233", "lng": "121.474155", "sbi": "6", "sna": "捷運忠義站"}, {"lat": "24.987507", "sno": "0151", "lng": "121.549827", "sbi": "2", "sna": "考試院"}, {"lat": "25.037706", "sno": "0249", "lng": "121.506624", "sbi": "22", "sna": "中華桂林路口"}, {"lat": "25.137456", "sno": "0112", "lng": "121.503124", "sbi": "13", "sna": "捷運新北投站"}, {"lat": "25.037724", "sno": "0113", "lng": "121.561178", "sbi": "12", "sna": "仁愛逸仙路口"}, {"lat": "25.052227", "sno": "0059", "lng": "121.525805", "sbi": "20", "sna": "林森公園"}, {"lat": "25.045267", "sno": "0058", "lng": "121.522200", "sbi": "23", "sna": "捷運善導寺站(1號出口)"}, {"lat": "25.096122", "sno": "0116", "lng": "121.530215", "sbi": "15", "sna": "福林公園"}, {"lat": "25.132581", "sno": "0117", "lng": "121.498618", "sbi": "7", "sna": "捷運北投站"}, {"lat": "25.109908", "sno": "0114", "lng": "121.530386", "sbi": "15", "sna": "蘭雅公園"}, {"lat": "25.048222", "sno": "0115", "lng": "121.520526", "sbi": "40", "sna": "臺北轉運站"}, {"lat": "25.044781", "sno": "0053", "lng": "121.536609", "sbi": "12", "sna": "八德市場"}, {"lat": "25.054761", "sno": "0052", "lng": "121.536925", "sbi": "18", "sna": "建國長春路口"}, {"lat": "25.065031", "sno": "0051", "lng": "121.536775", "sbi": "23", "sna": "建國農安街口"}, {"lat": "25.062002", "sno": "0050", "lng": "121.560186", "sbi": "29", "sna": "民權運動公園"}, {"lat": "25.026217", "sno": "0057", "lng": "121.53519", "sbi": "25", "sna": "新生和平路口"}, {"lat": "25.038954", "sno": "0056", "lng": "121.522334", "sbi": "15", "sna": "仁愛林森路口"}, {"lat": "25.049505", "sno": "0055", "lng": "121.549408", "sbi": "18", "sna": "臺北田徑場"}, {"lat": "25.028798", "sno": "0054", "lng": "121.538073", "sbi": "19", "sna": "臺北市立圖書館(總館)"}, {"lat": "25.050620", "sno": "0267", "lng": "121.580194", "sbi": "21", "sna": "八德中坡路口"}, {"lat": "25.027123", "sno": "0248", "lng": "121.555566", "sbi": "13", "sna": "喬治工商"}, {"lat": "25.066635", "sno": "0158", "lng": "121.613505", "sbi": "25", "sna": "捷運東湖站"}, {"lat": "25.028679", "sno": "0276", "lng": "121.559320", "sbi": "27", "sna": "三興公園"}, {"lat": "25.053432", "sno": "0279", "lng": "121.606331", "sbi": "22", "sna": "南港車站(興華路)"}, {"lat": "25.054095", "sno": "0261", "lng": "121.560928", "sbi": "26", "sna": "健康新城"}, {"lat": "25.082210", "sno": "0324", "lng": "121.510800", "sbi": "7", "sna": "市立圖書館葫蘆堵分館"}, {"lat": "25.031580", "sno": "0327", "lng": "121.514640", "sbi": "1", "sna": "重慶南海路口"}, {"lat": "25.045250", "sno": "0326", "lng": "121.567090", "sbi": "15", "sna": "基隆路一段101巷口"}, {"lat": "25.049394", "sno": "0229", "lng": "121.514611", "sbi": "20", "sna": "市民太原路口"}, {"lat": "25.041928", "sno": "0288", "lng": "121.524591", "sbi": "27", "sna": "濟南紹興路口"}, {"lat": "25.023377", "sno": "0289", "lng": "121.518835", "sbi": "18", "sna": "牯嶺公園"}, {"lat": "25.067558", "sno": "0287", "lng": "121.538264", "sbi": "13", "sna": "第二果菜批發市場"}, {"lat": "25.096166", "sno": "0284", "lng": "121.522096", "sbi": "12", "sna": "華聲公園"}, {"lat": "25.025966", "sno": "0285", "lng": "121.513770", "sbi": "5", "sna": "螢橋國小"}, {"lat": "25.041935", "sno": "0282", "lng": "121.571999", "sbi": "5", "sna": "富台公園"}, {"lat": "25.127959", "sno": "0283", "lng": "121.467700", "sbi": "19", "sna": "中央北路四段540巷口"}, {"lat": "25.089034", "sno": "0280", "lng": "121.517320", "sbi": "17", "sna": "士林新天地"}, {"lat": "25.050245", "sno": "0281", "lng": "121.532725", "sbi": "19", "sna": "松江公園"}, {"lat": "25.005386", "sno": "0206", "lng": "121.55716", "sbi": "18", "sna": "捷運辛亥站"}, {"lat": "25.103242", "sno": "0207", "lng": "121.487477", "sbi": "20", "sna": "福安國中"}, {"lat": "25.113625", "sno": "0204", "lng": "121.537420", "sbi": "19", "sna": "臺北市立大學(天母校區)"}, {"lat": "24.988241", "sno": "0205", "lng": "121.555610", "sbi": "16", "sna": "木柵光輝路口"}, {"lat": "25.124646", "sno": "0202", "lng": "121.467336", "sbi": "22", "sna": "捷運關渡站"}, {"lat": "25.024487", "sno": "0203", "lng": "121.510570", "sbi": "18", "sna": "古亭國中"}, {"lat": "25.082866", "sno": "0159", "lng": "121.566695", "sbi": "10", "sna": "捷運西湖站(1號出口)"}, {"lat": "25.117472", "sno": "0242", "lng": "121.463161", "sbi": "14", "sna": "關渡宮"}, {"lat": "25.064108", "sno": "0222", "lng": "121.522065", "sbi": "20", "sna": "撫順公園"}, {"lat": "25.035555", "sno": "0208", "lng": "121.495342", "sbi": "27", "sna": "龍山國小"}, {"lat": "25.137837", "sno": "0209", "lng": "121.486071", "sbi": "27", "sna": "捷運復興崗站"}, {"lat": "25.075366", "sno": "0230", "lng": "121.580811", "sbi": "19", "sna": "湖光國宅"}, {"lat": "25.080258", "sno": "0266", "lng": "121.564806", "sbi": "7", "sna": "洲子一號公園"}, {"lat": "25.127400", "sno": "0223", "lng": "121.507267", "sbi": "25", "sna": "清江國小"}, {"lat": "25.071606", "sno": "0109", "lng": "121.530805", "sbi": "6", "sna": "林安泰古厝"}, {"lat": "25.073306", "sno": "0108", "lng": "121.515843", "sbi": "16", "sna": "臺北孔廟"}, {"lat": "24.984144", "sno": "0262", "lng": "121.569064", "sbi": "11", "sna": "永安藝文館-表演36房"}, {"lat": "25.097103", "sno": "0263", "lng": "121.542153", "sbi": "17", "sna": "至善臨溪路口"}, {"lat": "25.044412", "sno": "0105", "lng": "121.505409", "sbi": "22", "sna": "峨嵋停車場"}, {"lat": "25.004023", "sno": "0104", "lng": "121.54074", "sbi": "7", "sna": "台北花木批發市場"}, {"lat": "25.036402", "sno": "0107", "lng": "121.509422", "sbi": "12", "sna": "捷運小南門站(1號出口)"}, {"lat": "25.032932", "sno": "0106", "lng": "121.497674", "sbi": "31", "sna": "西園艋舺路口"}, {"lat": "25.043668", "sno": "0101", "lng": "121.528487", "sbi": "11", "sna": "華山文創園區"}, {"lat": "25.045753", "sno": "0100", "lng": "121.530697", "sbi": "3", "sna": "金山市民路口"}, {"lat": "25.031974", "sno": "0103", "lng": "121.500474", "sbi": "30", "sna": "萬大興寧街口"}, {"lat": "25.02043", "sno": "0102", "lng": "121.525322", "sbi": "21", "sna": "臺北市客家文化主題公園"}, {"lat": "25.066997", "sno": "0274", "lng": "121.579833", "sbi": "21", "sna": "扶輪親恩公園"}, {"lat": "25.08418", "sno": "0119", "lng": "121.555116", "sbi": "17", "sna": "捷運劍南路站(2號出口)"}, {"lat": "25.054365", "sno": "0226", "lng": "121.594228", "sbi": "13", "sna": "向陽南港路口"}, {"lat": "25.084244", "sno": "0227", "lng": "121.576680", "sbi": "11", "sna": "麗山高中"}, {"lat": "25.068616", "sno": "0260", "lng": "121.583991", "sbi": "19", "sna": "民權瑞光路口"}, {"lat": "25.001149", "sno": "0237", "lng": "121.551418", "sbi": "7", "sna": "文山第二行政中心"}, {"lat": "25.029264", "sno": "0299", "lng": "121.499358", "sbi": "18", "sna": "萬華國中"}, {"lat": "25.056458", "sno": "0298", "lng": "121.516976", "sbi": "9", "sna": "太原五原路口"}, {"lat": "25.049616", "sno": "0291", "lng": "121.577459", "sbi": "5", "sna": "捷運松山站(3號出口)"}, {"lat": "25.068387", "sno": "0290", "lng": "121.530188", "sbi": "9", "sna": "新生公園"}, {"lat": "25.051618", "sno": "0175", "lng": "121.544847", "sbi": "14", "sna": "捷運南京復興站(5號出口)"}, {"lat": "25.023473", "sno": "0295", "lng": "121.541083", "sbi": "19", "sna": "敦親公園"}, {"lat": "25.047617", "sno": "0294", "lng": "121.540431", "sbi": "26", "sna": "朱崙商場"}, {"lat": "25.041702", "sno": "0297", "lng": "121.499922", "sbi": "7", "sna": "長沙公園"}, {"lat": "25.001545", "sno": "0296", "lng": "121.536446", "sbi": "13", "sna": "萬和二號公園"}, {"lat": "25.080915", "sno": "0211", "lng": "121.597339", "sbi": "21", "sna": "星雲金湖街口"}, {"lat": "25.079766", "sno": "0210", "lng": "121.558135", "sbi": "25", "sna": "樂群二敬業四路口"}, {"lat": "25.107782", "sno": "0213", "lng": "121.523107", "sbi": "15", "sna": "蘭雅國小"}, {"lat": "25.084223", "sno": "0212", "lng": "121.549452", "sbi": "19", "sna": "北安大直街口"}, {"lat": "25.049930", "sno": "0215", "lng": "121.510367", "sbi": "27", "sna": "捷運北門站(3號出口)"}, {"lat": "25.055935", "sno": "0214", "lng": "121.578645", "sbi": "33", "sna": "基河一期國宅"}, {"lat": "25.062645", "sno": "0217", "lng": "121.574267", "sbi": "5", "sna": "臺北花市"}, {"lat": "25.082553", "sno": "0216", "lng": "121.544601", "sbi": "24", "sna": "培英公園"}, {"lat": "25.072485", "sno": "0192", "lng": "121.607955", "sbi": "19", "sna": "捷運葫洲站(1號出口)"}, {"lat": "25.041277", "sno": "0193", "lng": "121.619350", "sbi": "20", "sna": "舊莊區民活動中心"}, {"lat": "25.079278", "sno": "0190", "lng": "121.546683", "sbi": "25", "sna": "捷運大直站(3號出口)"}, {"lat": "25.083945", "sno": "0191", "lng": "121.601854", "sbi": "25", "sna": "捷運大湖公園站(2號出口)"}, {"lat": "25.068744", "sno": "0196", "lng": "121.589233", "sbi": "10", "sna": "新湖國小"}, {"lat": "25.057164", "sno": "0201", "lng": "121.597924", "sbi": "33", "sna": "東陽公園"}, {"lat": "25.047958", "sno": "0194", "lng": "121.524388", "sbi": "22", "sna": "市民林森路口"}, {"lat": "25.035851", "sno": "0195", "lng": "121.523987", "sbi": "20", "sna": "信義杭州路口(中華電信總公司)"}, {"lat": "25.078908", "sno": "0178", "lng": "121.510306", "sbi": "7", "sna": "延平國宅"}, {"lat": "25.041278", "sno": "0179", "lng": "121.590885", "sbi": "25", "sna": "南港公園"}, {"lat": "25.040988", "sno": "0275", "lng": "121.507688", "sbi": "41", "sna": "西本願寺廣場"}, {"lat": "25.070723", "sno": "0269", "lng": "121.590304", "sbi": "6", "sna": "三軍總醫院"}, {"lat": "25.056655", "sno": "0268", "lng": "121.607055", "sbi": "9", "sna": "南港高工"}, {"lat": "24.984707", "sno": "0272", "lng": "121.563125", "sbi": "7", "sna": "忠順區民活動中心"}, {"lat": "25.105429", "sno": "0270", "lng": "121.529217", "sbi": "28", "sna": "雨農國小"}, {"lat": "25.059245", "sno": "0170", "lng": "121.568883", "sbi": "29", "sna": "新東公園"}, {"lat": "24.996842", "sno": "0171", "lng": "121.559651", "sbi": "2", "sna": "文山運動中心"}, {"lat": "25.051562", "sno": "0172", "lng": "121.562891", "sbi": "4", "sna": "捷運南京三民站(1號出口)"}, {"lat": "25.052181", "sno": "0173", "lng": "121.533211", "sbi": "36", "sna": "捷運松江南京站(7號出口)"}, {"lat": "25.051702", "sno": "0174", "lng": "121.553057", "sbi": "32", "sna": "捷運小巨蛋站(5號出口)"}, {"lat": "25.086376", "sno": "0110", "lng": "121.560888", "sbi": "30", "sna": "文湖國小"}, {"lat": "25.055997", "sno": "0176", "lng": "121.542318", "sbi": "60", "sna": "興安華城"}, {"lat": "25.082538", "sno": "0177", "lng": "121.507495", "sbi": "11", "sna": "葫蘆國小"}, {"lat": "25.040184", "sno": "0111", "lng": "121.543497", "sbi": "27", "sna": "捷運忠孝復興站(2號出口)"}, {"lat": "25.051761", "sno": "0259", "lng": "121.542168", "sbi": "15", "sna": "南京遼寧街口"}, {"lat": "25.038943", "sno": "0241", "lng": "121.579146", "sbi": "18", "sna": "林口公園"}, {"lat": "25.052096", "sno": "0258", "lng": "121.507979", "sbi": "21", "sna": "聯合醫院中興院區"}, {"lat": "25.042342", "sno": "0185", "lng": "121.546050", "sbi": "13", "sna": "瑠公公園"}, {"lat": "25.084759", "sno": "0184", "lng": "121.537892", "sbi": "15", "sna": "劍潭社區"}, {"lat": "25.037465", "sno": "0187", "lng": "121.555769", "sbi": "18", "sna": "仁愛延吉街口"}, {"lat": "25.035414", "sno": "0186", "lng": "121.514218", "sbi": "19", "sna": "臺北市立大學"}, {"lat": "25.025850", "sno": "0181", "lng": "121.537383", "sbi": "18", "sna": "建國和平路口"}, {"lat": "25.068770", "sno": "0180", "lng": "121.592654", "sbi": "16", "sna": "福華商場"}, {"lat": "25.053884", "sno": "0183", "lng": "121.514549", "sbi": "0", "sna": "圓環站"}, {"lat": "25.025300", "sno": "0182", "lng": "121.523537", "sbi": "22", "sna": "捷運古亭站(2號出口)"}, {"lat": "25.087848", "sno": "0189", "lng": "121.587821", "sbi": "25", "sna": "金瑞公園(金龍路)"}, {"lat": "25.090293", "sno": "0188", "lng": "121.501890", "sbi": "34", "sna": "社子國小"}, {"lat": "25.044091", "sno": "0277", "lng": "121.510250", "sbi": "6", "sna": "中山堂"}, {"lat": "25.007528", "sno": "0066", "lng": "121.537188", "sbi": "16", "sna": "師範大學公館校區"}, {"lat": "25.042973", "sno": "0067", "lng": "121.516428", "sbi": "30", "sna": "捷運臺大醫院(4號出口)"}, {"lat": "25.037773", "sno": "0064", "lng": "121.517029", "sbi": "24", "sna": "國家圖書館"}, {"lat": "25.022725", "sno": "0065", "lng": "121.502708", "sbi": "17", "sna": "青年公園3號出口"}, {"lat": "25.026827", "sno": "0062", "lng": "121.520258", "sbi": "2", "sna": "南昌公園"}, {"lat": "25.037569", "sno": "0063", "lng": "121.545632", "sbi": "9", "sna": "仁愛醫院"}, {"lat": "25.064317", "sno": "0060", "lng": "121.533487", "sbi": "13", "sna": "中山行政中心"}, {"lat": "25.0131", "sno": "0061", "lng": "121.539723", "sbi": "19", "sna": "台灣科技大學"}, {"lat": "25.136929", "sno": "0118", "lng": "121.499152", "sbi": "15", "sna": "大業大同街口"}, {"lat": "25.025865", "sno": "0068", "lng": "121.506536", "sbi": "15", "sna": "國興青年路口"}, {"lat": "24.999837", "sno": "0069", "lng": "121.547778", "sbi": "14", "sna": "興豐公園"}, {"lat": "25.0360361111", "sno": "0004", "lng": "121.562325", "sbi": "34", "sna": "市民廣場"}, {"lat": "25.0365638889", "sno": "0005", "lng": "121.5686639", "sbi": "36", "sna": "興雅國中"}, {"lat": "25.0347361111", "sno": "0006", "lng": "121.565658333", "sbi": "34", "sna": "世貿二館"}, {"lat": "25.0330388889", "sno": "0007", "lng": "121.565619444", "sbi": "28", "sna": "信義廣場(台北101)"}, {"lat": "25.098743", "sno": "0246", "lng": "121.548086", "sbi": "24", "sna": "國立故宮博物院"}, {"lat": "25.0408578889", "sno": "0001", "lng": "121.567904444", "sbi": "91", "sna": "捷運市政府站(3號出口)"}, {"lat": "25.041254", "sno": "0002", "lng": "121.55742", "sbi": "19", "sna": "捷運國父紀念館站(2號出口)"}, {"lat": "25.0377972222", "sno": "0003", "lng": "121.565169444", "sbi": "0", "sna": "台北市政府"}, {"lat": "25.018097", "sno": "0163", "lng": "121.559279", "sbi": "32", "sna": "捷運麟光站2號出口"}, {"lat": "25.062924", "sno": "0162", "lng": "121.52772", "sbi": "41", "sna": "捷運中山國小站(4號出口)"}, {"lat": "25.131143", "sno": "0161", "lng": "121.503768", "sbi": "39", "sna": "大豐公園"}, {"lat": "25.053082", "sno": "0160", "lng": "121.52029", "sbi": "10", "sna": "捷運中山站(4號出口)"}, {"lat": "25.0352138889", "sno": "0008", "lng": "121.563688889", "sbi": "18", "sna": "世貿三館"}, {"lat": "25.03159", "sno": "0009", "lng": "121.574353", "sbi": "18", "sna": "松德站"}, {"lat": "25.120788", "sno": "0165", "lng": "121.505693", "sbi": "50", "sna": "捷運唭哩岸站(2號出口)"}, {"lat": "25.126286", "sno": "0164", "lng": "121.500801", "sbi": "21", "sna": "捷運奇岩站"}, {"lat": "25.090202", "sno": "0243", "lng": "121.506219", "sbi": "6", "sna": "社子公園"}, {"lat": "25.037570", "sno": "0307", "lng": "121.552076", "sbi": "19", "sna": "仁愛安和路口"}, {"lat": "25.019296", "sno": "0221", "lng": "121.571050", "sbi": "16", "sna": "泰和公園"}, {"lat": "25.027781", "sno": "0306", "lng": "121.521980", "sbi": "20", "sna": "捷運古亭站(6號出口)"}, {"lat": "25.119292", "sno": "0236", "lng": "121.469138", "sbi": "16", "sna": "關渡自然公園"}, {"lat": "25.020544", "sno": "0252", "lng": "121.545608", "sbi": "0", "sna": "大安運動中心"}, {"lat": "25.125377", "sno": "0254", "lng": "121.471482", "sbi": "18", "sna": "立功立德路口"}, {"lat": "25.060746", "sno": "0302", "lng": "121.550711", "sbi": "12", "sna": "敦北公園"}, {"lat": "25.032985", "sno": "0071", "lng": "121.554204", "sbi": "15", "sna": "捷運信義安和站(4號出口)"}, {"lat": "25.032752", "sno": "0070", "lng": "121.561645", "sbi": "13", "sna": "捷運台北101/世貿站"}, {"lat": "25.072228", "sno": "0073", "lng": "121.510195", "sbi": "10", "sna": "酒泉延平路口"}, {"lat": "25.048611", "sno": "0072", "lng": "121.529346", "sbi": "30", "sna": "新生長安路口"}, {"lat": "25.0300508", "sno": "0075", "lng": "121.557635", "sbi": "7", "sna": "基隆光復路口"}, {"lat": "25.033817", "sno": "0074", "lng": "121.530547", "sbi": "12", "sna": "信義連雲街口"}, {"lat": "25.059147", "sno": "0077", "lng": "121.56297", "sbi": "13", "sna": "民生活動中心"}, {"lat": "25.056387", "sno": "0076", "lng": "121.527522", "sbi": "25", "sna": "新生長春路口"}, {"lat": "25.061285", "sno": "0079", "lng": "121.520205", "sbi": "23", "sna": "捷運民權西路站(3號出口)"}, {"lat": "25.071824", "sno": "0078", "lng": "121.519287", "sbi": "33", "sna": "捷運圓山站(2號出口)"}, {"lat": "25.013284", "sno": "0293", "lng": "121.530037", "sbi": "10", "sna": "自來水園區"}, {"lat": "25.05862", "sno": "0017", "lng": "121.55514", "sbi": "19", "sna": "民生光復路口"}, {"lat": "25.036084", "sno": "0016", "lng": "121.579135", "sbi": "18", "sna": "松山家商"}, {"lat": "25.049413", "sno": "0015", "lng": "121.572043", "sbi": "52", "sna": "饒河夜市"}, {"lat": "25.06424", "sno": "0014", "lng": "121.54037", "sbi": "13", "sna": "榮星花園"}, {"lat": "25.03809", "sno": "0013", "lng": "121.58367", "sbi": "24", "sna": "福德公園"}, {"lat": "25.026679", "sno": "0012", "lng": "121.561747", "sbi": "16", "sna": "臺北醫學大學"}, {"lat": "25.034937", "sno": "0011", "lng": "121.55762", "sbi": "19", "sna": "三張犁"}, {"lat": "25.0286611111", "sno": "0010", "lng": "121.566116667", "sbi": "22", "sna": "台北市災害應變中心"}, {"lat": "25.046914", "sno": "0255", "lng": "121.557674", "sbi": "18", "sna": "光復南路22巷口"}, {"lat": "25.101423", "sno": "0253", "lng": "121.527990", "sbi": "14", "sna": "芝山抽水站"}, {"lat": "25.023316", "sno": "0257", "lng": "121.492637", "sbi": "9", "sna": "錦德公園"}, {"lat": "25.096507", "sno": "0256", "lng": "121.527526", "sbi": "21", "sna": "中山中正路口"}, {"lat": "25.083023", "sno": "0251", "lng": "121.520692", "sbi": "18", "sna": "華齡公園"}, {"lat": "25.030015", "sno": "0169", "lng": "121.509813", "sbi": "33", "sna": "植物園"}, {"lat": "25.02863", "sno": "0019", "lng": "121.56981", "sbi": "6", "sna": "中強公園"}, {"lat": "25.048268", "sno": "0018", "lng": "121.552278", "sbi": "20", "sna": "社教館"}, {"lat": "25.02288", "sno": "0168", "lng": "121.522855", "sbi": "16", "sna": "河堤國小"}, {"lat": "25.145936", "sno": "0264", "lng": "121.493009", "sbi": "18", "sna": "秀山區民活動中心"}, {"lat": "24.987144", "sno": "0247", "lng": "121.560627", "sbi": "12", "sna": "木柵公園"}, {"lat": "25.045908", "sno": "0244", "lng": "121.543736", "sbi": "23", "sna": "復興市民路口"}, {"lat": "25.110437", "sno": "0273", "lng": "121.535954", "sbi": "25", "sna": "芝山國小"}, {"lat": "25.036568", "sno": "0150", "lng": "121.57343", "sbi": "25", "sna": "松德公園"}, {"lat": "25.060632", "sno": "0245", "lng": "121.544028", "sbi": "15", "sna": "捷運中山國中站"}, {"lat": "25.056687", "sno": "0239", "lng": "121.584098", "sbi": "27", "sna": "新明路321巷口"}, {"lat": "25.032835", "sno": "0088", "lng": "121.571274", "sbi": "14", "sna": "捷運象山站"}, {"lat": "25.027323", "sno": "0089", "lng": "121.516385", "sbi": "4", "sna": "和平重慶路口"}, {"lat": "25.029705", "sno": "0084", "lng": "121.502899", "sbi": "10", "sna": "復華花園新城"}, {"lat": "25.033362", "sno": "0085", "lng": "121.54911", "sbi": "26", "sna": "信義敦化路口"}, {"lat": "25.062344", "sno": "0086", "lng": "121.545138", "sbi": "22", "sna": "民權復興路口"}, {"lat": "25.033078", "sno": "0087", "lng": "121.543057", "sbi": "33", "sna": "捷運大安站"}, {"lat": "25.02751", "sno": "0080", "lng": "121.495869", "sbi": "26", "sna": "華江高中"}, {"lat": "25.020547", "sno": "0081", "lng": "121.528552", "sbi": "11", "sna": "捷運台電大樓站(2號出口)"}, {"lat": "25.041778", "sno": "0082", "lng": "121.508693", "sbi": "8", "sna": "捷運西門站(3號出口)"}, {"lat": "25.033156", "sno": "0083", "lng": "121.535161", "sbi": "22", "sna": "捷運大安森林公園站"}, {"lat": "25.048616", "sno": "0022", "lng": "121.578095", "sbi": "16", "sna": "松山車站"}, {"lat": "25.055074", "sno": "0023", "lng": "121.602798", "sbi": "15", "sna": "東新國小"}, {"lat": "25.025896", "sno": "0020", "lng": "121.543293", "sbi": "29", "sna": "捷運科技大樓站"}, {"lat": "25.057985", "sno": "0021", "lng": "121.548982", "sbi": "14", "sna": "民生敦化路口"}, {"lat": "25.050142", "sno": "0026", "lng": "121.592375", "sbi": "20", "sna": "捷運昆陽站(1號出口)"}, {"lat": "25.05469", "sno": "0027", "lng": "121.61669", "sbi": "7", "sna": "捷運南港展覽館站(5號出口)"}, {"lat": "25.03293", "sno": "0024", "lng": "121.53747", "sbi": "24", "sna": "信義建國路口"}, {"lat": "25.04543", "sno": "0025", "lng": "121.57205", "sbi": "21", "sna": "永吉松信路口"}, {"lat": "25.059162", "sno": "0220", "lng": "121.510512", "sbi": "25", "sna": "大稻埕公園"}, {"lat": "25.095714", "sno": "0167", "lng": "121.518046", "sbi": "14", "sna": "臺北市立天文館"}, {"lat": "25.04814", "sno": "0028", "lng": "121.57467", "sbi": "13", "sna": "五常公園"}, {"lat": "25.03164", "sno": "0029", "lng": "121.52655", "sbi": "13", "sna": "金山愛國路口"}, {"lat": "25.088243", "sno": "0224", "lng": "121.510535", "sbi": "11", "sna": "社正公園"}, {"lat": "25.018600", "sno": "0225", "lng": "121.554839", "sbi": "22", "sna": "臥龍樂業街口"}, {"lat": "25.040558", "sno": "0138", "lng": "121.575372", "sbi": "11", "sna": "捷運永春站(2號出口)"}, {"lat": "24.980602", "sno": "0166", "lng": "121.556177", "sbi": "12", "sna": "臺北市立景美女中"}, {"lat": "25.031147", "sno": "0219", "lng": "121.490740", "sbi": "12", "sna": "大理高中"}, {"lat": "25.078292", "sno": "0129", "lng": "121.585264", "sbi": "31", "sna": "捷運文德站(2號出口)"}, {"lat": "25.043299", "sno": "0218", "lng": "121.564108", "sbi": "20", "sna": "松山高中"}, {"lat": "25.041840", "sno": "0250", "lng": "121.539873", "sbi": "17", "sna": "忠孝東路三段217巷口"}, {"lat": "25.062557", "sno": "0278", "lng": "121.586065", "sbi": "25", "sna": "明美公園"}, {"lat": "25.026808", "sno": "0128", "lng": "121.546726", "sbi": "14", "sna": "成功國宅"}, {"lat": "25.053614", "sno": "0314", "lng": "121.548720", "sbi": "7", "sna": "敦化長春路口"}, {"lat": "25.051287", "sno": "0320", "lng": "121.564262", "sbi": "14", "sna": "捷運南京三民站(3號出口)"}, {"lat": "24.998956", "sno": "0228", "lng": "121.567474", "sbi": "20", "sna": "捷運萬芳社區站"}, {"lat": "25.052141", "sno": "0240", "lng": "121.536802", "sbi": "18", "sna": "南京建國路口"}, {"lat": "25.057923", "sno": "0310", "lng": "121.542732", "sbi": "6", "sna": "國立臺北大學(臺北校區)"}, {"lat": "25.054501", "sno": "0139", "lng": "121.510549", "sbi": "0", "sna": "永樂市場"}, {"lat": "25.068409", "sno": "0156", "lng": "121.615938", "sbi": "19", "sna": "東湖國小"}, {"lat": "25.082703", "sno": "0157", "lng": "121.571467", "sbi": "11", "sna": "麗山國小"}, {"lat": "25.093396", "sno": "0154", "lng": "121.519867", "sbi": "11", "sna": "中正基河路口"}, {"lat": "25.076193", "sno": "0155", "lng": "121.57505", "sbi": "15", "sna": "瑞光港墘路口"}, {"lat": "25.08521", "sno": "0152", "lng": "121.519175", "sbi": "16", "sna": "百齡國小"}, {"lat": "25.059885", "sno": "0153", "lng": "121.516299", "sbi": "19", "sna": "蔣渭水紀念公園"}, {"lat": "25.057866", "sno": "0099", "lng": "121.520711", "sbi": "14", "sna": "捷運雙連站(2號出口)"}, {"lat": "24.999378", "sno": "0098", "lng": "121.540197", "sbi": "19", "sna": "羅斯福景隆街口"}, {"lat": "25.082825", "sno": "0097", "lng": "121.524721", "sbi": "13", "sna": "捷運劍潭站(2號出口)"}, {"lat": "25.061567", "sno": "0096", "lng": "121.566558", "sbi": "13", "sna": "三民公園"}, {"lat": "25.023393", "sno": "0095", "lng": "121.497679", "sbi": "12", "sna": "東園國小"}, {"lat": "24.993254", "sno": "0094", "lng": "121.541059", "sbi": "22", "sna": "捷運景美站"}, {"lat": "25.023877", "sno": "0093", "lng": "121.569836", "sbi": "12", "sna": "吳興公車總站"}, {"lat": "25.046618", "sno": "0092", "lng": "121.507169", "sbi": "22", "sna": "開封西寧路口"}, {"lat": "25.070629", "sno": "0091", "lng": "121.523268", "sbi": "13", "sna": "市立美術館"}, {"lat": "25.037783", "sno": "0090", "lng": "121.501708", "sbi": "20", "sna": "老松國小"}]}